     3.02           OBSERVATION DATA    M (MIXED)           RINEX VERSION / TYPE
SAVERINEX           SC600               20200507 205931 LCL PGM / RUN BY / DATE
       G = GPS       R = GLONASS       C = COMPASS          COMMENT
       S = SBAS      J = QZSS          E = GALILEO          COMMENT
BEAN                                                        MARKER NAME
1                                                           MARKER NUMBER
GEODETIC                                                    MARKER TYPE
Unige DICCA         GTER                                    OBSERVER / AGENCY
SC60291900056       SC600               2.12(191226)        REC # / TYPE / VERS
                    HEMA45          NONE                    ANT # / TYPE
  4509407.8091   693652.4678  4442337.6214                  APPROX POSITION XYZ
        0.0000        0.0000        0.0000                  ANTENNA: DELTA H/E/N
G    8 C1C L1C D1C S1C C2Y L2Y D2Y S2Y                      SYS / # / OBS TYPES
R    8 C1C L1C D1C S1C C2P L2P D2P S2P                      SYS / # / OBS TYPES
C    8 C1I L1I D1I S1I C7I L7I D7I S7I                      SYS / # / OBS TYPES
E    8 C1C L1C D1C S1C C7Q L7Q D7Q S7Q                      SYS / # / OBS TYPES
DBHZ                                                        COMMENT
     30.000                                                 INTERVAL
  2020    05    07    18    00    0.0000000     GPS         TIME OF FIRST OBS
  2020    05    07    18    59   30.0000000     GPS         TIME OF LAST OBS
     0                                                      RCV CLOCK OFFS APPL
G L1C  0.00000                                              SYS / PHASE SHIFT
G L2Y  0.00000                                              SYS / PHASE SHIFT
R L1C  0.00000                                              SYS / PHASE SHIFT
R L2P  0.25000                                              SYS / PHASE SHIFT
C L1I  0.00000                                              SYS / PHASE SHIFT
C L7I  0.00000                                              SYS / PHASE SHIFT
E L1C  0.50000                                              SYS / PHASE SHIFT
E L7Q -0.25000                                              SYS / PHASE SHIFT
 12 R02 -4 R03  5 R04  6 R05  1 R09 -2 R10 -5 R14 -7 R15  0 GLONASS SLOT / FRQ #
    R16 -1 R17  4 R18 -3 R19  3                             GLONASS SLOT / FRQ #
 C1C   71.950 C2C   71.950 C2P   71.950                     GLONASS COD/PHS/BIS
    18                                                      LEAP SECONDS
*** Above antenna height is from mark to ANTENNA BOTTOM.    COMMENT
    17     4        0.0000        ANT MEASURE TYPE/HEIGT    COMMENT
    0.0000    0.0000    0.0458    0.0405    0.0000          COMMENT
                    BASE STATION                            COMMENT
                                                            END OF HEADER
> 2020 05 07 18 00  0.0000000  0 17        .000000000000
G08  20326004.766 8 106813886.390 8        30.777          51.000    20326006.375 8  83231593.412 8        23.982          51.000
G10  21975776.094 6 115483520.310 6     -2342.180          40.000    21975776.734 6  89987173.131 6     -1825.075          41.000
G14  23735745.602 7 124732204.290 7      2794.320          44.000    23735745.547 6  97193939.466 6      2177.395          36.000
G22  22984774.000 7 120785878.541 7      3087.527          44.000    22984774.664 6  94118785.762 6      2405.865          39.000
G27  21193588.445 8 111373045.900 8     -2163.977          51.000    21193589.266 8  86784180.204 8     -1686.216          51.000
G32  22721437.984 6 119401947.497 6      2027.098          37.000    22721437.500 5  93040469.295 5      1579.566          34.000
R04  19639578.391 8 105169066.099 8       797.457          48.000    19639583.453 7  81798172.263 7       620.244          47.000
R05  21772246.469 7 116385141.079 7      4149.492          45.000    21772252.562 6  90521776.858 6      3227.386          40.000
R19  19804173.297 6 105938980.659 6      -760.738          39.000    19804175.484 6  82396982.058 6      -591.688          38.000
C05  39634958.859 5 206389630.737 5       -22.273          34.000    39634959.664 6 159593558.480 6       -16.812          36.000
C11                                                                  22637096.844 5  91150193.154 5      1389.542          35.000
C12  21873465.734 8 113900867.886 8     -1043.859          51.000    21873466.234 8  88075368.953 8      -807.157          51.000
C21  22127014.133 8 115221181.314 8       967.012          51.000
C22  23937563.969 6 124649213.203 6     -2108.492          36.000
E05  25730123.219 8 135212768.392 8      2681.074          49.000    25730124.680 8 103604518.295 8      2054.351          50.000
E09  23023498.305 5 120989301.926 5       358.488          35.000    23023507.062 5  92706117.229 5       274.551          33.000
E36  23867221.367 6 125423105.449 6     -1066.707          41.000    23867224.328 8  96103440.753 8      -817.368          50.000
> 2020 05 07 18 00 30.0000000  0 17        .000000000000
G08  20325867.875 8 106813166.848 8        17.121          51.000    20325869.781 8  83231032.716 8        13.341          51.000
G10  21989172.406 7 115553916.824 7     -2350.742          42.000    21989173.977 7  90042027.540 7     -1831.747          42.000
G14  23719802.414 7 124648427.413 7      2790.984          44.000    23719801.008 6  97128658.854 6      2174.796          38.000
G22  22967164.859 7 120693341.225 7      3081.562          45.000    22967164.797 6  94046678.813 6      2401.218          40.000
G27  21205972.078 8 111438124.647 8     -2174.727          50.000    21205973.250 8  86834890.891 8     -1694.592          50.000
G32  22709897.656 6 119341291.455 6      2016.918          37.000    22709902.000 5  92993205.045 5      1571.624          35.000
R04  19635179.070 8 105145506.096 8       773.102          49.000    19635183.695 7  81779847.850 7       601.301          47.000
R05  21748981.633 7 116260774.932 7      4141.461          47.000    21748987.109 7  90425047.704 7      3221.139          42.000
R19  19808468.555 6 105961957.703 6      -771.027          38.000    19808470.758 6  82414853.066 6      -599.688          38.000
C05  39635077.227 5 206390247.297 5       -18.871          34.000    39635077.961 6 159594034.297 6       -14.903          36.000
C11                                                                  22626756.492 5  91108554.879 5      1386.301          33.000
C12  21879502.086 8 113932300.588 8     -1051.645          50.000    21879502.570 8  88099674.704 8      -813.259          51.000
C21  22121481.055 8 115192369.918 8       953.773          51.000
C22  23949733.852 5 124712603.673 5     -2117.961          35.000
E05  25714828.031 8 135132393.846 8      2677.164          48.000    25714831.367 8 103542932.639 8      2051.345          51.000
E09  23021487.844 6 120978729.647 6       346.613          39.000    23021497.945 5  92698016.547 5       265.305          34.000
E36  23873317.938 7 125455145.067 7     -1069.312          42.000    23873321.562 8  96127990.584 8      -819.245          50.000
> 2020 05 07 18 01  0.0000000  0 17        .000000000000
G08  20325833.453 8 106812985.442 8        -2.938          51.000    20325835.523 8  83230891.355 8        -2.289          51.000
G10  22002640.961 7 115624693.816 7     -2365.680          43.000    22002643.000 7  90097178.418 7     -1843.390          43.000
G14  23703902.961 7 124564879.013 7      2781.164          44.000    23703902.523 6  97063556.264 6      2167.144          37.000
G22  22949613.094 7 120601105.238 7      3069.621          47.000    22949611.609 6  93974806.667 6      2391.916          37.000
G27  21218440.508 7 111503651.296 7     -2191.617          47.000    21218442.547 7  86885950.560 7     -1707.757          46.000
G32  22698442.977 6 119281105.280 6      1998.879          37.000    22698448.023 6  92946327.631 6      1557.571          38.000
R04  19630940.312 8 105122806.349 8       742.332          51.000    19630944.445 7  81762192.551 7       577.369          46.000
R05  21725786.656 8 116136779.815 8      4126.863          48.000    21725791.375 7  90328607.136 7      3209.786          43.000
R19  19812846.914 6 105985376.393 6      -787.984          38.000    19812848.320 6  82433067.588 6      -612.880          37.000
C05  39635203.086 5 206390903.529 5       -22.656          33.000    39635203.875 6 159594541.694 6       -17.078          37.000
C11  22616462.992 5 117769851.786 5      1782.516          31.000    22616463.414 5  91067109.853 5      1378.218          33.000
C12  21885607.242 8 113964090.976 8     -1065.652          51.000    21885607.648 8  88124257.037 8      -824.033          51.000
C21  22116047.945 8 115164080.089 8       934.332          51.000
C22  23961981.086 6 124776390.341 6     -2133.059          36.000
E05  25699578.453 7 135052262.158 7      2666.934          46.000    25699583.625 8 103481533.015 8      2043.504          50.000
E09  23019566.734 6 120968631.950 6       328.652          38.000    23019576.016 6  92690279.424 6       251.684          37.000
E36  23879451.938 7 125487381.612 7     -1077.848          44.000    23879456.156 8  96152691.339 8      -825.865          51.000
> 2020 05 07 18 01 30.0000000  0 17        .000000000000
G08  20325894.594 8 106813306.604 8       -19.914          51.000    20325896.750 8  83231141.609 8       -15.517          51.000
G10  22016174.367 6 115695812.584 6     -2376.922          41.000    22016175.164 6  90152595.610 6     -1852.150          41.000
G14  23688040.758 7 124481525.034 7      2774.430          43.000    23688041.688 6  96998605.159 6      2161.893          39.000
G22  22932112.516 8 120509136.075 8      3060.355          49.000    22932109.172 6  93903142.436 6      2384.696          39.000
G27  21230986.906 7 111569588.283 7     -2205.445          47.000    21230989.719 7  86937330.051 7     -1718.529          47.000
G32  22687069.961 6 119221321.294 6      1984.891          37.000    22687072.570 6  92899742.671 6      1546.665          37.000
R04  19626855.680 8 105100930.368 8       714.629          51.000    19626858.367 7  81745177.942 7       555.826          45.000
R05  21702654.680 8 116013122.846 8      4115.496          49.000    21702658.852 7  90232429.583 7      3200.944          44.000
R19  19817300.430 6 106009199.983 6      -801.848          37.000    19817302.203 6  82451596.992 6      -623.662          38.000
C05  39635329.680 5 206391561.691 5       -23.008          34.000    39635330.578 6 159595051.797 6       -17.401          36.000
C11  22606213.203 5 117716469.238 5      1774.938          32.000    22606210.852 4  91025843.575 4      1372.410          28.000
C12  21891774.266 8 113996203.263 8     -1076.578          50.000    21891774.438 8  88149088.306 8      -832.394          51.000
C21  22110708.352 8 115136276.161 8       917.871          51.000
C22  23974294.578 5 124840535.230 5     -2145.391          33.000
E05  25684368.523 7 134972338.647 7      2659.863          47.000    25684374.828 8 103420292.904 8      2038.101          49.000
E09  23017728.430 6 120958972.607 6       313.953          39.000    23017736.109 6  92682878.166 6       240.699          39.000
E36  23885616.891 7 125519778.808 7     -1083.426          46.000    23885621.555 8  96177515.186 8      -830.101          51.000
> 2020 05 07 18 02  0.0000000  0 16        .000000000000
G08  20326058.188 8 106814166.649 8       -37.016          51.000    20326060.516 8  83231811.758 8       -28.843          51.000
G10  22029779.078 6 115767306.143 6     -2388.805          38.000    22029779.148 6  90208304.853 6     -1861.406          37.000
G14  23672223.039 7 124398404.018 7      2767.234          42.000    23672226.172 7  96933835.611 7      2156.290          42.000
G22  22914669.695 8 120417470.194 8      3051.031          49.000    22914665.742 6  93831714.558 6      2377.430          41.000
G27  21243618.609 8 111635969.930 8     -2219.520          50.000    21243621.461 8  86989056.023 8     -1729.496          50.000
R04  19622931.617 8 105079914.820 8       686.801          51.000    19622933.070 7  81728832.577 7       534.181          44.000
R05  21679593.000 8 115889843.592 8      4103.633          48.000    21679596.812 7  90136545.791 7      3191.714          44.000
R18  22712317.820 5 121239860.123 5     -3009.164          30.000
R19  19821836.688 6 106033465.324 6      -815.434          37.000    19821838.055 6  82470469.982 6      -634.226          37.000
C05                                                                  39635464.688 6 159595591.620 6       -17.972          36.000
C12  21898009.578 8 114028672.609 8     -1087.543          49.000    21898009.844 8  88174195.674 8      -841.096          51.000
C21  22105468.641 8 115108993.541 8       901.324          51.000
C22  23986677.508 4 124904961.129 4     -2157.855          29.000
E05  25669206.461 8 134892660.329 8      2652.473          50.000    25669212.039 8 103359240.696 8      2032.393          48.000
E09  23015980.945 6 120949787.197 6       298.730          39.000    23015985.562 6  92675840.003 6       229.068          40.000
E36  23891819.367 7 125552372.073 7     -1089.105          47.000    23891824.133 8  96202489.265 8      -834.470          51.000
> 2020 05 07 18 02 30.0000000  0 16        .000000000000
G08  20326312.656 8 106815504.194 8       -52.629          51.000    20326315.078 8  83232853.981 8       -41.010          51.000
G10  22043442.656 6 115839110.491 6     -2398.699          38.000    22043444.062 6  90264256.323 6     -1869.119          37.000
G14  23656438.766 7 124315456.907 7      2761.777          45.000    23656443.008 7  96869201.552 7      2152.034          42.000
G22  22897272.953 8 120326047.401 8      3043.312          49.000    22897269.414 7  93760476.091 7      2371.412          42.000
G27  21256323.773 8 111702733.495 8     -2231.879          51.000    21256326.117 8  87041079.521 8     -1739.129          51.000
R04  19619156.461 8 105059697.111 8       660.496          51.000    19619157.531 7  81713107.734 7       513.719          46.000
R05  21656590.391 7 115766883.266 7      4093.168          46.000    21656594.234 7  90040910.043 7      3183.575          45.000
R19  19826444.344 6 106058110.106 6      -828.059          37.000    19826444.828 6  82489638.140 6      -644.046          39.000
C05                                                                  39635594.297 6 159596113.767 6       -17.027          36.000
C11  22585840.344 4 117610400.471 4      1760.664          29.000    22585834.125 4  90943794.369 4      1362.354          29.000
C12  21904301.930 8 114061437.995 8     -1097.270          48.000    21904301.969 8  88199531.957 8      -848.490          51.000
C21  22100317.500 8 115082171.469 8       886.289          51.000
C22  23999128.664 5 124969824.971 5     -2167.352          34.000
E05  25654080.281 8 134813167.326 8      2646.488          51.000    25654084.016 8 103298330.510 8      2027.820          48.000
E09  23014311.172 5 120941014.093 5       285.473          35.000    23014314.391 7  92669117.821 7       218.622          42.000
E36  23898047.469 7 125585099.895 7     -1093.297          47.000    23898051.836 8  96227566.426 8      -837.736          51.000
> 2020 05 07 18 03  0.0000000  0 17        .000000000000
G08  20326661.992 8 106817339.780 8       -68.461          51.000    20326664.539 8  83234284.293 8       -53.346          51.000
G10  22057168.844 6 115911243.387 6     -2408.828          40.000    22057170.930 6  90320463.762 6     -1877.009          39.000
G14  23640692.812 7 124232706.677 7      2756.254          47.000    23640697.031 7  96804720.911 7      2147.733          42.000
G22  22879925.906 7 120234889.142 7      3035.195          47.000    22879923.344 7  93689443.726 7      2365.087          43.000
G27  21269105.375 8 111769897.698 8     -2244.395          51.000    21269107.070 8  87093415.245 8     -1748.879          51.000
R04  19615533.977 8 105040298.241 8       634.035          50.000    19615535.211 7  81698019.782 7       493.141          46.000
R05  21633651.531 7 115644266.102 7      4082.539          47.000    21633656.367 7  89945541.197 7      3175.308          45.000
R18  22746216.211 5 121420794.047 5     -3020.914          31.000
R19  19831125.820 6 106083155.348 6      -840.445          36.000    19831127.117 6  82509117.761 6      -653.680          40.000
C05                                                                  39635723.328 6 159596632.566 6       -16.223          36.000
C11  22575714.516 5 117557673.323 5      1755.352          31.000
C12  21910654.758 8 114094519.393 8     -1107.012          48.000    21910654.680 8  88225112.604 8      -855.921          51.000
C21  22095258.688 8 115055830.137 8       871.066          51.000
C22  24011648.914 6 125035034.715 6     -2178.262          36.000
E05  25638993.461 8 134733881.275 8      2640.449          51.000    25638995.766 8 103237578.916 8      2023.267          48.000
E09                                                                  23012726.492 7  92662726.971 7       208.368          43.000
E36  23904304.867 8 125617982.260 8     -1097.570          49.000    23904309.109 8  96252761.983 8      -840.948          51.000
> 2020 05 07 18 03 30.0000000  0 18        .000000000000
G08  20327106.148 8 106819673.739 8       -86.574          51.000    20327108.828 8  83236102.953 8       -67.460          51.000
G10  22070957.023 6 115983702.009 6     -2421.309          39.000    22070957.398 6  90376924.965 6     -1886.737          39.000
G14  23624985.031 7 124150155.512 7      2747.836          47.000    23624988.422 7  96740395.422 7      2141.174          43.000
G22  22862628.562 7 120143996.145 7      3024.824          46.000    22862627.734 7  93618618.019 7      2357.006          44.000
G27  21281962.789 8 111837460.922 8     -2259.418          51.000    21281964.078 8  87146061.901 8     -1760.585          51.000
G32  22642384.883 5 118986535.488 5      1928.363          32.000    22642373.891 5  92716730.972 5      1502.612          30.000
R03  21828570.250 5 116850000.306 5     -3196.398          31.000
R04  19612064.188 8 105021718.225 8       605.129          49.000    19612065.914 7  81683568.688 7       470.656          47.000
R05  21610777.539 7 115521995.071 7      4069.277          47.000    21610783.195 7  89850441.540 7      3164.993          46.000
R18  22763209.391 5 121511557.049 5     -3028.992          32.000
R19  19835882.461 5 106108601.064 5      -855.172          35.000    19835884.375 6  82528908.835 6      -665.134          41.000
C05                                                                  39635851.625 6 159597149.563 6       -17.682          36.000
C12  21917068.234 8 114127916.414 8     -1118.988          49.000    21917068.227 8  88250937.317 8      -865.394          51.000
C21  22090291.945 8 115029969.344 8       853.418          51.000
C22  24024236.453 5 125100587.650 5     -2191.355          34.000
E05  25623946.164 8 134654803.437 8      2631.855          51.000    25623947.711 8 103176986.865 8      2016.623          49.000
E09                                                                  23011221.539 7  92656667.150 7       196.024          44.000
E36  23910591.742 8 125651018.806 8     -1104.395          49.000    23910595.953 8  96278075.686 8      -846.242          51.000
> 2020 05 07 18 04  0.0000000  0 16        .000000000000
G08  20327648.766 8 106822525.792 8      -103.203          51.000    20327651.469 8  83238325.310 8       -80.418          51.000
G10  22084810.953 6 116056503.429 6     -2431.949          40.000    22084809.672 6  90433653.325 6     -1895.022          40.000
G14  23609319.078 8 124067825.520 8      2741.086          48.000    23609321.719 7  96676242.292 7      2135.914          44.000
G22  22845386.234 7 120053389.580 7      3015.848          47.000    22845386.500 7  93548015.491 7      2350.011          45.000
G27  21294899.508 8 111905441.362 8     -2272.504          51.000    21294900.828 8  87199033.660 8     -1770.782          51.000
G32  22631408.242 5 118928836.951 5      1915.035          35.000    22631408.664 5  92671835.331 5      1492.229          35.000
R04  19608750.953 7 105003977.020 7       577.906          47.000    19608753.125 8  81669769.955 8       449.483          48.000
R05  21587973.008 8 115400094.214 8      4057.535          48.000    21587979.320 7  89755629.806 7      3155.861          45.000
R19  19840718.164 5 106134467.496 5      -869.066          34.000    19840719.727 6  82549027.193 6      -675.938          40.000
C05                                                                  39635983.078 6 159597678.597 6       -17.688          37.000
C12  21923546.203 8 114161648.440 8     -1129.492          49.000    21923546.055 8  88277021.055 8      -873.477          51.000
C21  22085421.453 8 115004608.652 8       837.473          51.000
C22  24036894.234 5 125166500.999 5     -2202.922          32.000
E05  25608942.234 8 134575954.917 8      2624.918          51.000    25608943.938 8 103116570.518 8      2011.265          50.000
E09                                                                  23009802.602 7  92650953.311 7       185.025          43.000
E36  23916911.625 8 125684229.000 8     -1109.438          50.000    23916915.625 8  96303522.445 8      -850.160          50.000
> 2020 05 07 18 04 30.0000000  0 16        .000000000000
G08  20328283.320 8 106825860.648 8      -119.270          51.000    20328286.070 8  83240923.895 8       -92.937          51.000
G10  22098722.570 6 116129609.075 6     -2441.875          40.000    22098723.469 6  90490618.768 6     -1902.757          40.000
G14  23593688.617 8 123985683.458 8      2734.770          49.000    23593690.344 7  96612235.548 7      2130.992          44.000
G22  22828192.539 8 119963034.541 8      3007.531          50.000    22828192.609 7  93477608.996 7      2343.531          44.000
G27  21307908.617 8 111973801.627 8     -2285.051          51.000    21307909.758 8  87252301.405 8     -1780.556          51.000
G32  22620514.672 6 118871602.227 6      1901.051          37.000    22620513.234 5  92627237.123 5      1481.353          35.000
R04  19605587.055 7 104987038.130 7       551.340          47.000    19605590.227 8  81656595.248 8       428.820          49.000
R05  21565231.203 8 115278530.025 8      4046.359          48.000    21565237.891 7  89661079.931 7      3147.171          44.000
R19  19845625.156 5 106160718.466 5      -881.391          32.000    19845627.352 6  82569444.618 6      -685.529          41.000
C05                                                                  39636110.664 6 159598191.713 6       -16.737          37.000
C12  21930081.344 8 114195679.713 8     -1139.410          50.000    21930081.297 8  88303336.166 8      -880.989          51.000
C21  22080639.844 8 114979712.422 8       822.109          49.000
C22  24049615.461 5 125232736.704 5     -2212.184          30.000
E05  25593975.062 8 134497301.192 8      2618.473          51.000    25593977.438 8 103056303.425 8      2006.362          50.000
E09  23008463.344 6 120910290.584 6       227.992          36.000    23008462.453 7  92645557.696 7       174.513          43.000
E36  23923257.703 8 125717576.691 8     -1113.879          50.000    23923261.617 8  96329074.569 8      -853.501          50.000
> 2020 05 07 18 05  0.0000000  0 16        .000000000000
G08  20329013.445 8 106829697.409 8      -136.383          51.000    20329016.141 8  83243913.569 8      -106.272          51.000
G10  22112695.219 6 116203035.641 6     -2452.910          40.000    22112698.359 6  90547834.268 6     -1911.362          39.000
G14  23578097.750 8 123903751.143 8      2727.375          48.000    23578098.977 7  96548392.228 7      2125.227          45.000
G22  22811050.516 8 119872951.214 8      2998.098          50.000    22811049.695 7  93407414.248 7      2336.183          43.000
G27  21320993.242 8 112042559.499 8     -2298.629          51.000    21320994.367 8  87305878.934 8     -1791.139          51.000
G32  22609704.430 6 118814798.427 6      1886.512          40.000    22609705.312 6  92582974.833 6      1470.018          38.000
R04  19602576.977 7 104970921.220 7       523.371          47.000    19602580.805 8  81644059.837 8       407.066          48.000
R05  21542557.062 8 115157325.863 8      4034.066          49.000    21542563.422 7  89566810.086 7      3137.610          43.000
R19  19850608.000 5 106187373.866 5      -894.832          32.000    19850610.633 6  82590176.614 6      -695.977          41.000
C05                                                                  39636237.805 6 159598704.539 6       -16.997          36.000
C12  21936677.891 8 114230029.063 8     -1150.414          51.000    21936677.844 8  88329897.251 8      -889.588          51.000
C21  22075951.336 8 114955299.779 8       805.559          50.000
C22  24062402.234 5 125299311.790 5     -2224.906          32.000
E05  25579048.711 8 134418862.970 8      2610.910          51.000    25579051.938 8 102996201.450 8      2000.550          50.000
E09  23007204.547 6 120903683.178 6       213.133          37.000    23007205.266 7  92640494.931 7       163.193          42.000
E36  23929633.547 8 125751080.970 8     -1119.520          50.000    23929637.547 8  96354746.681 8      -857.847          49.000
> 2020 05 07 18 05 30.0000000  0 16        .000000000000
G08  20329841.297 8 106834047.765 8      -153.078          51.000    20329843.992 8  83247303.441 8      -119.282          51.000
G10  22126730.633 6 116276791.672 6     -2463.512          41.000    22126733.008 6  90605306.424 6     -1919.620          40.000
G14  23562548.766 7 123822041.938 7      2720.367          47.000    23562549.859 7  96484722.751 7      2119.767          44.000
G22  22793962.352 8 119783151.793 8      2988.926          51.000    22793960.203 7  93337440.752 7      2329.036          42.000
G27  21334155.164 8 112111724.549 8     -2311.887          51.000    21334155.852 8  87359773.748 8     -1801.470          51.000
G32  22598980.086 6 118758438.959 6      1871.688          40.000    22598980.758 6  92539058.395 6      1458.461          39.000
R04  19599722.930 8 104955637.526 8       495.961          49.000    19599726.938 8  81632172.503 8       385.747          49.000
R05  21519953.906 8 115036496.614 8      4021.773          51.000    21519959.008 7  89472831.887 7      3128.049          44.000
R19  19855668.211 5 106214445.056 5      -909.043          32.000    19855671.289 6  82611232.037 6      -707.033          40.000
C05                                                                  39636366.773 6 159599223.198 6       -17.018          37.000
C12  21943337.602 8 114264707.277 8     -1160.973          51.000    21943337.586 8  88356712.609 8      -897.753          51.000
C21  22071358.477 8 114931381.697 8       789.492          51.000
C22  24075255.211 6 125366234.812 6     -2236.457          36.000
E05  25564165.453 8 134340652.729 8      2603.629          51.000    25564169.594 8 102936274.160 8      1994.964          49.000
E09  23006031.438 6 120897521.015 6       198.453          40.000    23006033.547 6  92635773.349 6       152.094          41.000
E36  23936041.148 8 125784752.718 8     -1124.688          50.000    23936044.867 8  96380547.103 8      -861.753          48.000
> 2020 05 07 18 06  0.0000000  0 17        .000000000000
G08  20330766.188 8 106838908.552 8      -170.031          51.000    20330769.023 8  83251091.047 8      -132.492          51.000
G10  22140827.570 6 116350871.512 6     -2474.000          40.000    22140829.305 6  90663030.909 6     -1927.792          39.000
G14  23547041.625 7 123740555.303 7      2713.309          45.000    23547043.156 7  96421226.704 7      2114.269          43.000
G22  22776927.664 8 119693634.293 8      2979.805          51.000    22776923.867 6  93267686.957 6      2321.929          41.000
G27  21347393.469 8 112181292.284 8     -2325.066          51.000    21347393.672 8  87413982.303 8     -1811.740          51.000
G32  22588340.383 6 118702522.549 6      1856.984          36.000    22588340.234 6  92495487.294 6      1447.004          36.000
R04  19597024.133 8 104941183.732 8       468.543          51.000    19597028.031 8  81620930.678 8       364.422          48.000
R05  21497421.188 8 114916042.583 8      4009.473          51.000    21497424.758 7  89379145.549 7      3118.485          44.000
R18  22848818.672 4 121968544.304 4     -3064.047          28.000    22848824.055 4  94864445.739 4     -2383.148          26.000
R19  19860805.500 5 106241929.533 5      -922.227          33.000    19860808.297 6  82632608.877 6      -717.287          39.000
C05                                                                  39636496.781 6 159599747.173 6       -16.849          37.000
C12  21950059.961 8 114299711.248 8     -1171.699          51.000    21950059.664 8  88383779.870 8      -905.984          51.000
C21  22066859.945 8 114907955.047 8       773.316          51.000
C22  24088173.789 5 125433500.400 5     -2247.281          33.000
E05  25549325.211 8 134262668.872 8      2596.258          51.000    25549329.844 7 102876520.347 7      1989.281          47.000
E09  23004942.312 6 120891800.860 6       183.832          40.000    23004944.656 6  92631390.381 6       140.900          39.000
E36  23942480.016 8 125818588.718 8     -1130.020          48.000    23942483.070 7  96406473.401 7      -865.826          47.000
> 2020 05 07 18 06 30.0000000  0 16        .000000000000
G01  22261154.133 5 116983197.531 5      2492.855          35.000
G08  20331788.188 8 106844278.654 8      -187.539          51.000    20331790.961 8  83255275.516 8      -146.134          51.000
G10  22154985.070 6 116425270.644 6     -2484.969          38.000    22154988.281 6  90721004.294 6     -1936.336          38.000
G14  23531576.891 7 123659291.960 7      2705.086          44.000    23531578.789 7  96357904.621 7      2107.859          43.000
G22  22759946.352 8 119604397.887 8      2969.805          50.000    22759941.805 7  93198152.182 7      2314.137          42.000
G27  21360707.461 8 112251259.283 8     -2338.820          51.000    21360707.430 8  87468501.951 8     -1822.460          51.000
R04  19594480.070 8 104927557.985 8       440.340          51.000    19594483.695 7  81610332.913 7       342.490          47.000
R05  21474958.742 8 114795965.390 8      3996.293          51.000    21474961.180 7  89285752.257 7      3108.228          45.000
R18  22866063.898 5 122060583.756 5     -3071.316          34.000
R19  19866020.328 5 106269825.321 5      -936.590          33.000    19866022.898 6  82654305.619 6      -728.459          39.000
C05                                                                  39636627.305 6 159600272.713 6       -17.842          37.000
C12  21956844.383 8 114335038.923 8     -1183.008          51.000    21956844.070 8  88411097.430 8      -914.765          51.000
C21  22062455.484 8 114885017.928 8       756.355          51.000
E05  25534528.062 8 134184910.926 8      2588.176          51.000    25534531.586 7 102816939.681 7      1983.121          45.000
E09  23003937.367 6 120886520.419 6       168.758          40.000    23003938.898 6  92627344.417 6       129.042          37.000
E36  23948949.570 8 125852586.950 8     -1136.012          48.000    23948952.125 7  96432523.993 7      -870.394          47.000
> 2020 05 07 18 07  0.0000000  0 16        .000000000000
G08  20332906.492 8 106850154.420 8      -204.469          51.000    20332909.109 8  83259854.029 8      -159.326          51.000
G10  22169202.398 6 116499983.013 6     -2495.844          41.000    22169206.898 6  90779221.766 6     -1944.810          40.000
G14  23516154.453 7 123578251.154 7      2697.520          45.000    23516156.820 7  96294755.969 7      2101.963          42.000
G22  22743017.906 8 119515440.251 8      2960.461          50.000    22743014.398 7  93128834.600 7      2306.853          43.000
G27  21374096.086 8 112321620.465 8     -2352.070          51.000    21374096.414 8  87523328.763 8     -1832.782          51.000
G32  22567311.414 6 118592003.947 6      1826.852          36.000    22567313.117 5  92409380.179 5      1423.524          35.000
R04  19592089.766 8 104914756.281 8       412.844          51.000    19592092.516 7  81600376.055 7       321.101          46.000
R05  21452566.211 8 114676265.010 8      3983.555          49.000    21452568.820 7  89192652.051 7      3098.323          47.000
R18  22883338.594 5 122152832.695 5     -3078.844          30.000
R19  19871312.188 6 106298129.001 6      -950.555          36.000    19871314.508 6  82676319.556 6      -739.323          37.000
C05                                                                  39636757.562 5 159600797.754 5       -17.592          35.000
C12  21963690.188 8 114370686.520 8     -1193.707          51.000    21963689.891 8  88438662.358 8      -922.996          51.000
C21  22058144.320 8 114862566.798 8       740.172          51.000
E05  25519773.688 8 134107376.739 8      2580.617          51.000    25519774.984 7 102757530.505 7      1977.413          45.000
E09  23003015.758 6 120881676.016 6       154.305          40.000    23003018.203 5  92623632.513 5       118.093          35.000
E36  23955449.219 7 125886743.631 7     -1141.301          46.000    23955452.617 7  96458696.005 7      -874.524          46.000
> 2020 05 07 18 07 30.0000000  0 16        .000000000000
G08  20334118.516 8 106856523.436 8      -222.402          51.000    20334120.883 8  83264816.883 8      -173.301          51.000
G10  22183476.570 6 116574993.792 6     -2507.090          38.000    22183481.195 6  90837671.726 6     -1953.577          38.000
G14  23500772.781 7 123497422.825 7      2688.762          44.000    23500775.383 7  96231772.935 7      2095.142          42.000
G22  22726140.359 8 119426750.315 8      2949.996          49.000    22726138.539 7  93059725.603 7      2298.701          45.000
G27  21387557.023 8 112392362.138 8     -2366.180          49.000    21387558.047 8  87578452.115 8     -1843.776          49.000
R04  19589851.102 8 104902766.174 8       384.254          51.000    19589853.062 7  81591050.449 7       298.864          46.000
R05  21430241.922 8 114556932.505 8      3969.641          48.000    21430245.438 7  89099837.920 7      3087.501          47.000
R18  22900665.945 6 122245275.872 6     -3086.562          36.000
R19  19876677.867 6 106326828.702 6      -964.922          36.000    19876679.094 6  82698641.556 6      -750.495          36.000
C05                                                                  39636885.297 6 159601312.844 6       -18.289          37.000
C12  21970595.250 8 114406641.812 8     -1205.461          51.000    21970594.539 8  88466465.251 8      -932.051          51.000
C21  22053923.977 8 114840589.585 8       722.832          51.000
C22  24127338.125 5 125637237.903 5     -2282.203          32.000
E05  25505060.133 8 134030055.592 8      2572.000          49.000    25505060.328 7 102698284.513 7      1970.780          47.000
E09  23002174.562 6 120877255.196 6       138.445          40.000    23002180.844 5  92620245.203 5       106.336          35.000
E36  23961976.750 7 125921046.412 7     -1147.832          42.000    23961980.859 7  96484979.957 7      -879.424          45.000
> 2020 05 07 18 08  0.0000000  0 17        .000000000000
G08  20335431.070 8 106863420.414 8      -238.023          51.000    20335433.367 8  83270191.133 8      -185.476          51.000
G10  22197813.469 6 116650334.355 6     -2516.180          40.000    22197816.977 6  90896378.577 6     -1960.663          39.000
G14  23485438.648 7 123416843.781 7      2682.309          43.000    23485440.984 6  96168984.158 6      2090.117          40.000
G22  22709320.570 8 119338363.056 8      2941.887          49.000    22709319.469 7  92990852.462 7      2292.382          44.000
G27  21401096.672 8 112463516.635 8     -2378.055          50.000    21401099.008 8  87633897.169 8     -1853.027          49.000
G32  22546615.141 5 118483261.375 5      1796.766          33.000    22546626.266 5  92324658.948 5      1400.071          33.000
R04  19587770.086 8 104891621.946 8       358.043          51.000    19587771.812 7  81582382.754 7       278.478          46.000
R05  21407993.578 8 114438005.709 8      3958.117          49.000    21407997.969 7  89007339.367 7      3078.539          47.000
R18  22918030.586 5 122337948.318 5     -3091.977          32.000    22918032.539 4  95151779.816 4     -2404.874          26.000
R19  19882123.227 6 106355959.140 6      -977.590          36.000    19882125.250 5  82721298.514 5      -760.351          35.000
C05                                                                  39637016.875 6 159601843.526 6       -17.347          36.000
C12  21977565.672 8 114442938.181 8     -1214.934          51.000    21977564.695 8  88494531.898 8      -939.479          51.000
C21  22049800.883 8 114819119.666 8       707.824          51.000
C22  24140519.555 5 125705841.737 5     -2291.277          30.000
E05  25490393.648 8 133952982.740 8      2565.605          48.000    25490394.109 8 102639228.741 8      1965.848          49.000
E09  23001420.828 6 120873291.504 6       125.219          36.000    23001431.867 5  92617208.231 5        96.061          35.000
E36  23968538.164 7 125955528.990 7     -1151.793          42.000    23968542.414 7  96511401.685 7      -882.357          42.000
> 2020 05 07 18 08 30.0000000  0 15        .000000000000
G08  20336840.156 8 106870824.766 8      -255.285          51.000    20336842.430 8  83275960.742 8      -198.927          51.000
G10  22212208.453 6 116725981.438 6     -2527.004          38.000    22212210.734 6  90955324.321 6     -1969.094          38.000
G14  23470148.484 7 123336495.600 7      2674.352          43.000    23470150.352 7  96106375.281 7      2083.913          42.000
G22  22692554.797 8 119250258.732 8      2931.988          49.000    22692553.453 7  92922199.794 7      2284.666          44.000
G27  21414710.914 8 112535061.839 8     -2391.344          50.000    21414714.312 8  87689646.675 8     -1863.382          50.000
G32  22536399.656 5 118429582.396 5      1781.465          32.000    22536406.844 5  92282811.160 5      1388.154          33.000
R04  19585843.125 8 104881302.384 8       330.250          50.000    19585844.727 7  81574356.436 7       256.861          47.000
R05  21385818.461 8 114319467.427 8      3944.707          49.000    21385822.773 7  88915142.987 7      3068.109          47.000
R19  19887646.125 6 106385499.454 6      -991.555          37.000    19887647.844 5  82744274.255 5      -771.209          34.000
C05                                                                  39637148.484 6 159602371.846 6       -17.858          36.000
C12  21984597.609 8 114479554.933 8     -1225.980          51.000    21984596.414 8  88522846.264 8      -947.970          51.000
C21  22045771.188 8 114798136.580 8       691.320          49.000
E05  25475770.297 7 133876139.008 7      2557.750          46.000    25475772.531 8 102580348.489 8      1959.727          51.000
E09                                                                  23000763.828 5  92614505.482 5        83.945          32.000
E36  23975129.891 6 125990170.584 6     -1157.469          40.000    23975133.828 6  96537945.342 6      -886.940          39.000
> 2020 05 07 18 09  0.0000000  0 16        .000000000000
G08  20338344.492 8 106878729.361 8      -272.488          51.000    20338346.703 8  83282120.147 8      -212.329          51.000
G10  22226659.969 6 116801925.219 6     -2537.242          38.000    22226662.047 6  91014501.364 6     -1977.069          38.000
G14  23454901.367 7 123256373.806 7      2666.414          42.000    23454903.094 6  96043942.801 6      2077.725          41.000
G22  22675841.922 8 119162431.409 8      2922.215          49.000    22675840.148 7  92853762.975 7      2277.054          44.000
G27  21428398.180 8 112606989.120 8     -2404.699          50.000    21428402.141 8  87745693.909 8     -1873.792          50.000
R03  22031095.172 4 117934176.768 4     -3372.957          28.000
R04  19584068.172 8 104871799.625 8       302.363          50.000    19584070.078 7  81566965.414 7       235.171          47.000
R05  21363715.836 8 114201313.677 8      3931.285          49.000    21363719.344 7  88823245.698 7      3057.669          46.000
R19  19893243.289 5 106415442.409 5     -1005.219          35.000    19893245.312 5  82767563.165 5      -781.837          32.000
C05                                                                  39637278.594 6 159602895.007 6       -17.827          37.000
C12  21991689.609 8 114516484.978 8     -1236.836          51.000    21991688.188 8  88551402.904 8      -956.391          51.000
C21  22041832.906 7 114777633.152 7       674.723          47.000
C22  24167021.688 4 125844027.697 4     -2313.574          28.000
E05  25461188.852 7 133799518.718 7      2549.602          46.000    25461193.484 8 102521639.388 8      1953.585          51.000
E09  23000175.477 5 120866725.016 5        95.621          34.000
E36  23981750.672 7 126024963.986 7     -1163.055          42.000    23981755.266 6  96564605.267 6      -891.013          38.000
> 2020 05 07 18 09 30.0000000  0 15        .000000000000
G08  20339948.625 8 106887158.415 8      -289.211          51.000    20339950.727 8  83288688.226 8      -225.362          51.000
G10  22241172.047 6 116878187.395 6     -2546.930          38.000    22241174.672 6  91073926.359 6     -1984.624          37.000
G14  23439702.648 7 123176504.747 7      2658.359          43.000    23439704.617 7  95981707.248 7      2071.452          42.000
G22  22659186.508 8 119074905.961 8      2912.984          50.000    22659184.500 7  92785561.381 7      2269.861          45.000
G27  21442162.719 8 112679320.773 8     -2417.227          50.000    21442166.469 8  87802056.228 8     -1883.553          50.000
G32  22516231.297 6 118323568.345 6      1751.680          38.000    22516234.336 6  92200202.798 6      1364.942          38.000
R04  19582450.312 8 104863137.865 8       275.188          48.000    19582452.648 8  81560228.484 8       214.035          48.000
R05  21341690.477 8 114083572.407 8      3918.246          48.000    21341693.250 7  88731669.216 7      3047.525          46.000
R19  19898921.055 5 106445813.205 5     -1019.148          35.000    19898923.211 5  82791184.821 5      -792.671          33.000
C05                                                                  39637411.711 6 159603431.178 6       -17.791          37.000
C12  21998846.273 8 114553751.700 8     -1247.340          51.000    21998844.906 8  88580219.881 8      -964.543          51.000
C21  22037991.461 8 114757632.919 8       658.789          48.000
E05  25446655.055 7 133723147.061 7      2542.016          47.000    25446661.250 8 102463120.840 8      1947.838          51.000
E09                                                                  22999660.992 6  92610116.234 6        62.313          39.000
E36  23988405.133 7 126059932.909 7     -1168.117          43.000    23988411.609 5  96591399.678 5      -894.758          34.000
> 2020 05 07 18 10  0.0000000  0 15        .000000000000
G08  20341638.055 8 106896036.348 8      -308.129          51.000    20341640.023 8  83295606.089 8      -240.100          51.000
G10  22255761.742 6 116954754.657 6     -2559.172          36.000    22255731.195 5  91133518.382 5     -1994.160          35.000
G14  23424538.516 7 123096815.059 7      2648.223          46.000    23424540.336 7  95919611.450 7      2063.553          42.000
G22  22642574.281 8 118987607.892 8      2901.438          50.000    22642572.469 7  92717536.964 7      2260.863          46.000
G27  21455989.641 8 112751979.667 8     -2432.293          51.000    21455992.531 8  87858673.538 8     -1895.293          51.000
G32  22506264.227 6 118271193.895 6      1734.730          36.000    22506270.227 6  92159391.587 6      1351.735          36.000
R04  19580975.328 8 104855239.715 8       245.605          48.000    19580978.117 8  81554085.468 8       191.026          48.000
R05  21319727.977 8 113966170.104 8      3902.785          48.000    21319730.664 7  88640356.356 7      3035.500          45.000
R19  19904663.680 5 106476534.615 5     -1034.957          35.000    19904665.523 5  82815079.206 5      -804.970          32.000
C05                                                                  39637533.391 6 159603921.114 6       -19.395          36.000
C12  22006053.125 8 114591279.888 8     -1259.961          51.000    22006051.938 8  88609239.035 8      -974.315          51.000
C21  22034233.062 8 114738060.882 8       640.461          50.000
E05  25432154.805 8 133646949.881 8      2532.215          48.000    25432161.695 8 102404736.003 8      1940.307          51.000
E09                                                                  22999229.656 6  92608376.912 6        49.362          40.000
E36  23995078.555 7 126095001.590 7     -1175.418          45.000    23995088.945 5  96618272.670 5      -900.513          30.000
> 2020 05 07 18 10 30.0000000  0 15        .000000000000
G08  20343441.883 8 106905515.421 8      -322.762          51.000    20343443.930 8  83302992.365 8      -251.506          51.000
G14  23409438.203 7 123017459.441 7      2642.785          47.000    23409439.594 7  95857775.951 7      2059.313          42.000
G22  22626034.375 8 118900690.324 8      2894.145          50.000    22626033.422 8  92649809.003 8      2255.178          48.000
G27  21469907.414 8 112825116.097 8     -2442.656          51.000    21469909.547 8  87915662.944 8     -1903.369          51.000
G32  22496402.789 6 118219369.025 6      1721.766          37.000    22496407.148 6  92119008.791 6      1341.645          36.000
R04  19579671.602 8 104848259.325 8       220.609          48.000    19579674.445 7  81548656.282 7       171.585          47.000
R05  21297857.875 7 113849264.834 7      3891.777          47.000    21297861.586 7  88549430.088 7      3026.941          45.000
R19  19910501.008 5 106507761.597 5     -1046.059          33.000    19910503.109 5  82839366.830 5      -813.604          35.000
C05                                                                  39637672.469 6 159604481.938 6       -17.432          37.000
C12  22013338.844 8 114629219.916 8     -1268.363          50.000    22013337.859 8  88638576.656 8      -980.746          51.000
C21  22030585.828 8 114719067.214 8       626.664          51.000
C22  24207331.414 5 126053867.069 5     -2345.414          31.000
E05  25417717.258 8 133571080.445 8      2526.766          49.000    25417724.148 8 102346602.297 8      1936.051          51.000
E09                                                                  22998894.914 6  92607041.999 6        40.365          40.000
E36  24001799.797 7 126130321.710 7     -1178.324          44.000    24001812.727 4  96645354.240 4      -902.312          29.000
> 2020 05 07 18 11  0.0000000  0 16        .000000000000
G08  20345338.461 8 106915481.986 8      -338.727          51.000    20345340.727 8  83310758.506 8      -263.943          51.000
G10  22285047.008 6 117108705.676 6     -2575.086          36.000    22285044.312 5  91253516.234 5     -2006.560          35.000
G14  23394380.305 8 122938327.072 8      2635.566          48.000    23394381.031 6  95796114.428 6      2053.691          41.000
G22  22609545.484 8 118814040.755 8      2885.480          50.000    22609545.422 8  92582289.896 8      2248.429          48.000
G27  21483894.219 8 112898615.128 8     -2454.414          51.000    21483895.914 8  87972934.876 8     -1912.530          51.000
G32  22486626.609 6 118167982.474 6      1706.715          38.000    22486625.500 5  92078967.490 5      1329.908          34.000
R04  19578517.695 8 104842080.743 8       194.242          48.000    19578520.609 7  81543850.716 7       151.077          46.000
R05  21276059.789 7 113732744.749 7      3879.203          47.000    21276064.695 7  88458803.439 7      3017.161          45.000
R19  19916411.000 5 106539379.024 5     -1058.609          33.000    19916414.266 6  82863958.154 6      -823.363          36.000
C05                                                                  39637807.258 6 159605023.543 6       -16.462          36.000
C12  22020682.227 8 114667459.183 8     -1278.004          50.000    22020681.195 8  88668145.704 8      -988.382          51.000
C21  22027028.336 8 114700539.474 8       611.410          51.000
C22  24220871.086 4 126124418.223 4     -2355.738          29.000
E05  25403320.992 8 133495426.835 8      2519.715          49.000    25403327.508 8 102288633.974 8      1930.679          51.000
E09                                                                  22998640.633 7  92606024.486 7        29.832          42.000
E36  24008547.367 7 126165779.869 7     -1182.707          45.000    24008552.297 6  96672472.596 6      -906.203          38.000
> 2020 05 07 18 11 30.0000000  0 17        .000000000000
G08  20347332.180 8 106925959.172 8      -357.074          51.000    20347334.328 8  83318922.545 8      -278.240          51.000
G10  22299788.508 6 117186164.552 6     -2585.965          37.000    22299787.516 6  91313873.690 6     -2015.047          38.000
G14  23379369.812 8 122859443.408 8      2625.867          49.000    23379369.320 6  95734646.697 6      2046.130          40.000
G22  22593112.352 8 118727683.182 8      2874.371          51.000    22593112.188 8  92514998.301 8      2239.773          48.000
G27  21497954.031 8 112972498.109 8     -2468.488          51.000    21497955.547 8  88030505.982 8     -1923.497          51.000
G32  22476936.219 5 118117059.102 5      1690.574          31.000    22476932.156 4  92039286.757 4      1317.337          27.000
R03  22126679.367 5 118445846.418 5     -3448.594          30.000
R04  19577517.750 8 104836727.017 8       165.406          48.000    19577520.602 7  81539686.725 7       128.649          45.000
R05  21254339.172 8 113616636.696 8      3864.055          48.000    21254344.547 7  88368497.230 7      3005.379          46.000
R19  19922399.000 5 106571410.483 5     -1074.430          32.000    19922401.992 6  82888871.511 6      -835.668          36.000
C05                                                                  39637942.078 6 159605567.347 6       -17.852          36.000
C12  22028087.406 8 114706020.329 8     -1289.922          49.000    22028086.523 8  88697963.635 8      -997.570          51.000
C21  22023564.953 8 114682500.335 8       593.867          51.000
C22  24234480.367 5 126195293.092 5     -2367.090          32.000
E05  25388970.406 8 133420013.425 8      2510.465          50.000    25388976.469 8 102230849.720 8      1923.615          51.000
E09                                                                  22998470.719 7  92605341.685 7        17.803          42.000
E36  24015325.805 7 126201398.851 7     -1189.316          46.000    24015333.211 6  96699765.034 6      -911.369          41.000
> 2020 05 07 18 12  0.0000000  0 16        .000000000000
G08  20349406.250 8 106936858.883 8      -370.531          51.000    20349408.242 8  83327415.836 8      -288.726          51.000
G14  23364390.266 8 122780722.312 8      2621.137          49.000    23364389.266 6  95673305.681 6      2042.447          41.000
G22  22576718.258 8 118641530.237 8      2868.117          51.000    22576717.656 7  92447866.162 7      2234.897          47.000
G27  21512069.414 8 113046675.064 8     -2477.668          51.000    21512070.727 8  88088306.153 8     -1930.650          51.000
R03  22146055.602 5 118549470.824 5     -3458.234          33.000    22146053.203 4  92205214.620 4     -2689.738          26.000
R04  19576654.938 8 104832107.192 8       141.598          48.000    19576657.344 7  81536093.532 7       110.132          44.000
R05  21232680.422 8 113500854.130 8      3853.770          51.000    21232685.656 7  88278444.180 7      2997.379          47.000
R18  23058283.625 5 123086671.019 5     -3143.422          33.000    23058287.711 4  95734090.314 4     -2444.884          26.000
R19  19928447.352 5 106603766.081 5     -1084.488          31.000    19928450.055 6  82914036.998 6      -843.491          38.000
C05                                                                  39638060.062 6 159606042.264 6       -14.626          36.000
C12  22035537.516 8 114744815.451 8     -1297.285          50.000    22035536.938 8  88727962.484 8     -1003.128          51.000
C21  22020178.102 8 114664861.934 8       581.078          51.000
C22  24248134.445 5 126266385.240 5     -2373.926          35.000
E05  25374649.188 8 133344753.214 8      2505.918          50.000    25374654.547 8 102173182.846 8      1920.050          51.000
E09                                                                  22998367.734 7  92604925.535 7         9.288          43.000
E36  24022118.023 7 126237090.023 7     -1191.078          47.000    24022123.875 7  96727112.842 7      -912.671          43.000
> 2020 05 07 18 12 30.0000000  0 17        .000000000000
G08  20351574.320 8 106948252.413 8      -391.508          51.000    20351576.453 8  83336293.913 8      -305.071          51.000
G14  23349455.742 8 122702238.242 8      2608.570          49.000    23349454.711 6  95612149.347 6      2032.655          41.000
G22  22560376.945 8 118555654.895 8      2854.383          50.000    22560375.977 7  92380950.335 7      2224.194          47.000
G27  21526254.102 8 113121215.918 8     -2494.238          51.000    21526254.844 8  88146389.903 8     -1943.562          51.000
R03  22165485.914 5 118653470.192 5     -3477.387          32.000    22165478.359 4  92286103.039 4     -2704.634          28.000
R04  19575942.500 8 104828293.863 8       110.145          48.000    19575945.023 7  81533127.642 7        85.668          44.000
R05  21211097.070 8 113385473.168 8      3835.738          51.000    21211101.727 7  88188703.497 7      2983.352          46.000
R18  23075973.688 5 123181097.252 5     -3154.012          34.000
R19  19934570.773 5 106636518.751 5     -1101.613          30.000    19934573.312 6  82939511.315 6      -856.807          40.000
C05                                                                  39638174.695 6 159606503.949 6       -18.009          37.000
C11  22391558.555 5 116598712.111 5      1607.445          30.000    22391552.977 4  90161506.342 4      1243.356          28.000
C12  22043046.438 8 114783915.203 8     -1311.852          50.000    22043045.797 8  88758196.896 8     -1014.346          51.000
C21  22016881.672 8 114647694.909 8       560.949          51.000
C22  24261843.977 5 126337771.184 5     -2387.840          35.000
E05  25360370.797 8 133269719.118 8      2493.863          49.000    25360375.750 8 102115689.238 8      1910.855          51.000
E09                                                                  22998345.109 7  92604830.570 7        -4.888          43.000
E36  24028937.438 7 126272924.916 7     -1200.340          46.000    24028941.586 7  96754570.739 7      -919.705          45.000
> 2020 05 07 18 13  0.0000000  0 14        .000000000000
G08  20353879.992 8 106960368.513 8      -404.641          51.000    20353882.047 8  83345735.024 8      -315.304          51.000
G14  23334609.766 8 122624221.488 8      2603.867          48.000    23334608.984 6  95551357.135 6      2028.990          40.000
G22  22544131.812 8 118470285.887 8      2848.410          50.000    22544130.180 7  92314429.056 7      2219.543          45.000
G27  21540551.375 8 113196347.247 8     -2503.016          51.000    21540551.500 8  88204933.770 8     -1950.405          51.000
R04  19575424.266 8 104825518.645 8        86.586          48.000    19575426.852 7  81530969.159 7        67.348          44.000
R05  21189632.656 8 113270729.826 8      3825.516          51.000    21189636.750 7  88099458.709 7      2975.404          46.000
R19  19940811.867 5 106669901.372 5     -1112.684          32.000    19940813.797 6  82965475.625 6      -865.421          40.000
C05                                                                  39638329.484 6 159607126.915 6       -14.511          36.000
C12  22050656.961 8 114823545.443 8     -1318.719          50.000    22050656.617 8  88788841.509 8     -1019.814          51.000
C21  22013719.070 8 114631225.192 8       548.441          51.000
C22  24275651.703 5 126409674.802 5     -2394.809          35.000
E05  25346179.086 8 133195140.706 8      2489.484          50.000    25346183.391 8 102058544.790 8      1907.578          51.000
E09                                                                  22998444.805 7  92605231.308 7       -12.957          43.000
E36  24035827.242 7 126309131.492 7     -1201.965          46.000    24035830.781 7  96782313.436 7      -921.049          46.000
> 2020 05 07 18 13 30.0000000  0 14        .000000000000
G08  20356273.367 8 106972945.722 8      -404.570          51.000    20356275.438 8  83355535.445 8      -315.250          51.000
G14  23319802.750 7 122546413.773 7      2612.562          45.000    23319802.945 7  95490727.794 7      2035.763          43.000
G22  22527933.195 8 118385162.967 8      2855.613          48.000    22527930.969 7  92248099.584 7      2225.156          45.000
G27  21554911.062 8 113271806.511 8     -2498.535          51.000    21554910.703 8  88263733.181 8     -1946.911          51.000
R04  19575050.320 8 104823515.105 8        76.719          49.000    19575052.422 7  81529410.867 7        59.670          44.000
R05  21168238.047 8 113156361.579 8      3828.688          51.000    21168241.352 7  88010505.685 7      2977.871          45.000
R19  19947120.578 5 106703648.231 5     -1107.758          30.000    19947122.203 6  82991723.204 6      -861.592          41.000
C05                                                                  39638474.578 6 159607711.095 6        -1.688          37.000
C12  22058319.500 8 114863447.334 8     -1312.488          50.000    22058319.453 8  88819696.177 8     -1014.815          51.000
C21  22010640.000 8 114615193.931 8       549.137          51.000
C22  24289507.992 6 126481835.021 6     -2387.438          37.000
E05  25332025.172 8 133120758.440 8      2498.438          51.000    25332028.133 8 102001550.635 8      1914.432          49.000
E09                                                                  22998617.648 7  92605927.506 7       -10.979          42.000
E36  24042738.484 7 126345448.657 7     -1190.051          46.000    24042741.422 7  96810140.865 7      -911.911          47.000
> 2020 05 07 18 14  0.0000000  0 15        .000000000000
G08  20358725.383 8 106985831.153 8      -445.867          51.000    20358727.430 8  83365576.015 8      -347.429          51.000
G14  23305006.445 7 122468664.235 7      2579.699          45.000    23305008.047 7  95430143.781 7      2010.155          43.000
G22  22511752.391 7 118300134.363 7      2821.574          47.000    22511749.766 7  92181843.613 7      2198.632          44.000
G27  21569303.539 8 113347438.749 8     -2535.129          51.000    21569303.156 8  88322667.358 8     -1975.428          51.000
G32  22429782.953 5 117869304.119 5      1609.438          35.000    22429785.188 5  91846200.899 5      1254.107          34.000
R04  19574791.211 8 104822126.341 8        24.668          49.000    19574793.211 7  81528330.744 7        19.189          46.000
R05  21146884.570 8 113042216.371 8      3789.684          51.000    21146887.211 7  87921726.169 7      2947.535          44.000
